[{
    "slug": "camille",
    "url": "http://camille.stpnnk.top",
    "name": "Camille A",
    "label": "Design + Development",
    "hours": "25 hours"
}, {
    "slug": "camp",
    "url": "http://camp.stpnnk.top",
    "name": "Camp Study",
    "label": "Design + Development",
    "hours": "100 hours"
}, {
    "slug": "amomama",
    "url": "http://amomama.stpnnk.top",
    "name": "Amomama",
    "label": "Design + Development",
    "hours": "30 hours"
}, {
    "slug": "oi",
    "url": "http://oi.stpnnk.top",
    "name": "News portal «Oi»",
    "label": "Design + Development",
    "hours": "50 hours"
}, {
    "slug": "consulting",
    "url": "http://consulting.stpnnk.top",
    "name": "Consulting Agency",
    "label": "Design + Development",
    "hours": "30 hours"
}, {
    "slug": "doc",
    "url": "http://doc-clinic.stpnnk.top",
    "name": "Doc clinic «Nash doctor»",
    "label": "Design + Development",
    "hours": "120 hours"
}, {
    "slug": "karpaty",
    "url": "http://karpaty.stpnnk.top",
    "name": "Camp «Karpaty»",
    "label": "Development",
    "hours": "20 hours"
}, {
    "slug": "reshop",
    "url": "http://reshop.stpnnk.top",
    "name": "Next gen online store",
    "label": "Design + Development",
    "hours": "in progress"
}, {
    "slug": "sorp",
    "url": "http://sorp.stpnnk.top",
    "name": "Sorp group",
    "label": "Development",
    "hours": "300 hours"
}]